trainNames = {"type":"FeatureCollection", "features": [
{"type":"Feature","geometry":{"type":"Point","coordinates":[174.9461144442971,-37.06429361114981]},"properties":{"OBJECTID":1,"STOPID":97,"STOPCODE":97,"STOPNAME":"Papakura Train Station","STOPDESC":"","LOCATIONTY":"Stop","STOPLAT":-37.06429361,"STOPLON":174.94611444,"PARENTSTAT":"","MODE":"Train"}},
{"type":"Feature","geometry":{"type":"Point","coordinates":[174.89617083339894,-37.02326777773913]},"properties":{"OBJECTID":2,"STOPID":98,"STOPCODE":98,"STOPNAME":"Manurewa Train Station","STOPDESC":"","LOCATIONTY":"Stop","STOPLAT":-37.02326778,"STOPLON":174.89617083,"PARENTSTAT":"","MODE":"Train"}},
{"type":"Feature","geometry":{"type":"Point","coordinates":[174.87467000024446,-37.01346333312164]},"properties":{"OBJECTID":3,"STOPID":99,"STOPCODE":99,"STOPNAME":"Homai Train Station","STOPDESC":"","LOCATIONTY":"Stop","STOPLAT":-37.01346333,"STOPLON":174.87467,"PARENTSTAT":"","MODE":"Train"}},
{"type":"Feature","geometry":{"type":"Point","coordinates":[174.8492500003363,-36.97766638875605]},"properties":{"OBJECTID":4,"STOPID":100,"STOPCODE":100,"STOPNAME":"Papatoetoe Train Station","STOPDESC":"","LOCATIONTY":"Stop","STOPLAT":-36.97766639,"STOPLON":174.84925,"PARENTSTAT":"","MODE":"Train"}},
{"type":"Feature","geometry":{"type":"Point","coordinates":[174.83320999979452,-36.9466947226358]},"properties":{"OBJECTID":5,"STOPID":101,"STOPCODE":101,"STOPNAME":"Otahuhu Train Station","STOPDESC":"","LOCATIONTY":"Stop","STOPLAT":-36.94669472,"STOPLON":174.83321,"PARENTSTAT":"","MODE":"Train"}},
{"type":"Feature","geometry":{"type":"Point","coordinates":[174.81569999974755,-36.91009166661652]},"properties":{"OBJECTID":6,"STOPID":102,"STOPCODE":102,"STOPNAME":"Penrose Train Station","STOPDESC":"","LOCATIONTY":"Stop","STOPLAT":-36.91009167,"STOPLON":174.8157,"PARENTSTAT":"","MODE":"Train"}},
{"type":"Feature","geometry":{"type":"Point","coordinates":[174.85412000031909,-36.87880055564988]},"properties":{"OBJECTID":7,"STOPID":103,"STOPCODE":103,"STOPNAME":"Glen Innes Train Station","STOPDESC":"","LOCATIONTY":"Stop","STOPLAT":-36.87880056,"STOPLON":174.85412,"PARENTSTAT":"","MODE":"Train"}},
{"type":"Feature","geometry":{"type":"Point","coordinates":[174.7352099999384,-36.87498499959468]},"properties":{"OBJECTID":8,"STOPID":104,"STOPCODE":104,"STOPNAME":"Morningside Train Station","STOPDESC":"","LOCATIONTY":"Stop","STOPLAT":-36.874985,"STOPLON":174.73521,"PARENTSTAT":"","MODE":"Train"}},
{"type":"Feature","geometry":{"type":"Point","coordinates":[174.69910472208377,-36.897140833708285]},"properties":{"OBJECTID":9,"STOPID":105,"STOPCODE":105,"STOPNAME":"Avondale Train Station","STOPDESC":"","LOCATIONTY":"Stop","STOPLAT":-36.89714083,"STOPLON":174.69910472,"PARENTSTAT":"","MODE":"Train"}},
{"type":"Feature","geometry":{"type":"Point","coordinates":[174.9194500001069,-37.041124167079985]},"properties":{"OBJECTID":10,"STOPID":106,"STOPCODE":106,"STOPNAME":"Takanini Train Station","STOPDESC":"","LOCATIONTY":"Stop","STOPLAT":-37.04112417,"STOPLON":174.91945,"PARENTSTAT":"","MODE":"Train"}},
{"type":"Feature","geometry":{"type":"Point","coordinates":[174.90609499993846,-37.031181666955334]},"properties":{"OBJECTID":11,"STOPID":107,"STOPCODE":107,"STOPNAME":"Te Mahia Train Station","STOPDESC":"","LOCATIONTY":"Stop","STOPLAT":-37.03118167,"STOPLON":174.906095,"PARENTSTAT":"","MODE":"Train"}},
{"type":"Feature","geometry":{"type":"Point","coordinates":[174.8560799994818,-36.989755555776924]},"properties":{"OBJECTID":12,"STOPID":108,"STOPCODE":108,"STOPNAME":"Puhinui Train Station","STOPDESC":"","LOCATIONTY":"Stop","STOPLAT":-36.98975556,"STOPLON":174.85608,"PARENTSTAT":"","MODE":"Train"}},
{"type":"Feature","geometry":{"type":"Point","coordinates":[174.8389686114716,-36.96304138931883]},"properties":{"OBJECTID":13,"STOPID":109,"STOPCODE":109,"STOPNAME":"Middlemore Train Station","STOPDESC":"","LOCATIONTY":"Stop","STOPLAT":-36.96304139,"STOPLON":174.83896861,"PARENTSTAT":"","MODE":"Train"}},
{"type":"Feature","geometry":{"type":"Point","coordinates":[174.80811111156325,-36.89847416635814]},"properties":{"OBJECTID":14,"STOPID":112,"STOPCODE":112,"STOPNAME":"Ellerslie Train Station","STOPDESC":"","LOCATIONTY":"Stop","STOPLAT":-36.89847417,"STOPLON":174.80811111,"PARENTSTAT":"","MODE":"Train"}},
{"type":"Feature","geometry":{"type":"Point","coordinates":[174.7974194449696,-36.88965722210708]},"properties":{"OBJECTID":15,"STOPID":113,"STOPCODE":113,"STOPNAME":"Greenlane Train Station","STOPDESC":"","LOCATIONTY":"Stop","STOPLAT":-36.88965722,"STOPLON":174.79741944,"PARENTSTAT":"","MODE":"Train"}},
{"type":"Feature","geometry":{"type":"Point","coordinates":[174.78542027813532,-36.8813833335131]},"properties":{"OBJECTID":16,"STOPID":114,"STOPCODE":114,"STOPNAME":"Remuera Train Station","STOPDESC":"","LOCATIONTY":"Stop","STOPLAT":-36.88138333,"STOPLON":174.78542028,"PARENTSTAT":"","MODE":"Train"}},
{"type":"Feature","geometry":{"type":"Point","coordinates":[174.7788336114757,-36.86972027744265]},"properties":{"OBJECTID":17,"STOPID":115,"STOPCODE":115,"STOPNAME":"Newmarket Train Station","STOPDESC":"","LOCATIONTY":"Stop","STOPLAT":-36.86972028,"STOPLON":174.77883361,"PARENTSTAT":"","MODE":"Train"}},
{"type":"Feature","geometry":{"type":"Point","coordinates":[174.8094999994656,-36.862426666948195]},"properties":{"OBJECTID":18,"STOPID":116,"STOPCODE":116,"STOPNAME":"Orakei Train Station","STOPDESC":"","LOCATIONTY":"Stop","STOPLAT":-36.86242667,"STOPLON":174.8095,"PARENTSTAT":"","MODE":"Train"}},
{"type":"Feature","geometry":{"type":"Point","coordinates":[174.8207499998767,-36.86631972232101]},"properties":{"OBJECTID":19,"STOPID":117,"STOPCODE":117,"STOPNAME":"Meadowbank Train Station","STOPDESC":"","LOCATIONTY":"Stop","STOPLAT":-36.86631972,"STOPLON":174.82075,"PARENTSTAT":"","MODE":"Train"}},
{"type":"Feature","geometry":{"type":"Point","coordinates":[174.7589891672129,-36.867958055302466]},"properties":{"OBJECTID":20,"STOPID":118,"STOPCODE":118,"STOPNAME":"Mt Eden Train Station","STOPDESC":"","LOCATIONTY":"Stop","STOPLAT":-36.86795806,"STOPLON":174.75898917,"PARENTSTAT":"","MODE":"Train"}},
{"type":"Feature","geometry":{"type":"Point","coordinates":[174.72045361137407,-36.87767777781729]},"properties":{"OBJECTID":21,"STOPID":119,"STOPCODE":119,"STOPNAME":"Baldwin Ave Train Station","STOPDESC":"","LOCATIONTY":"Stop","STOPLAT":-36.87767778,"STOPLON":174.72045361,"PARENTSTAT":"","MODE":"Train"}},
{"type":"Feature","geometry":{"type":"Point","coordinates":[174.71408944420264,-36.88477527746762]},"properties":{"OBJECTID":22,"STOPID":120,"STOPCODE":120,"STOPNAME":"Mt Albert Train Station","STOPDESC":"","LOCATIONTY":"Stop","STOPLAT":-36.88477528,"STOPLON":174.71408944,"PARENTSTAT":"","MODE":"Train"}},
{"type":"Feature","geometry":{"type":"Point","coordinates":[174.63200888867513,-36.89686777788157]},"properties":{"OBJECTID":23,"STOPID":121,"STOPCODE":121,"STOPNAME":"Sunnyvale Train Station","STOPDESC":"","LOCATIONTY":"Stop","STOPLAT":-36.89686778,"STOPLON":174.63200889,"PARENTSTAT":"","MODE":"Train"}},
{"type":"Feature","geometry":{"type":"Point","coordinates":[174.7445300003331,-36.87250777760935]},"properties":{"OBJECTID":24,"STOPID":122,"STOPCODE":122,"STOPNAME":"Kingsland Train Station","STOPDESC":"","LOCATIONTY":"Stop","STOPLAT":-36.87250778,"STOPLON":174.74453,"PARENTSTAT":"","MODE":"Train"}},
{"type":"Feature","geometry":{"type":"Point","coordinates":[174.66706694467598,-36.91066972197071]},"properties":{"OBJECTID":25,"STOPID":123,"STOPCODE":123,"STOPNAME":"Fruitvale Rd Train Station","STOPDESC":"","LOCATIONTY":"Stop","STOPLAT":-36.91066972,"STOPLON":174.66706694,"PARENTSTAT":"","MODE":"Train"}},
{"type":"Feature","geometry":{"type":"Point","coordinates":[174.65316999963258,-36.91027416664379]},"properties":{"OBJECTID":26,"STOPID":124,"STOPCODE":124,"STOPNAME":"Glen Eden Train Station","STOPDESC":"","LOCATIONTY":"Stop","STOPLAT":-36.91027417,"STOPLON":174.65317,"PARENTSTAT":"","MODE":"Train"}},
{"type":"Feature","geometry":{"type":"Point","coordinates":[174.6309741662413,-36.881012500448406]},"properties":{"OBJECTID":27,"STOPID":125,"STOPCODE":125,"STOPNAME":"Henderson Train Station","STOPDESC":"","LOCATIONTY":"Stop","STOPLAT":-36.8810125,"STOPLON":174.63097417,"PARENTSTAT":"","MODE":"Train"}},
{"type":"Feature","geometry":{"type":"Point","coordinates":[174.62082416703336,-36.87346888924813]},"properties":{"OBJECTID":28,"STOPID":126,"STOPCODE":126,"STOPNAME":"Sturges Rd Train Station","STOPDESC":"","LOCATIONTY":"Stop","STOPLAT":-36.87346889,"STOPLON":174.62082417,"PARENTSTAT":"","MODE":"Train"}},
{"type":"Feature","geometry":{"type":"Point","coordinates":[174.57630000027535,-36.8661805551797]},"properties":{"OBJECTID":29,"STOPID":127,"STOPCODE":127,"STOPNAME":"Swanson Train Station","STOPDESC":"","LOCATIONTY":"Stop","STOPLAT":-36.86618056,"STOPLON":174.5763,"PARENTSTAT":"","MODE":"Train"}},
{"type":"Feature","geometry":{"type":"Point","coordinates":[174.6033394444559,-36.86793666699849]},"properties":{"OBJECTID":30,"STOPID":128,"STOPCODE":128,"STOPNAME":"Ranui Train Station","STOPDESC":"","LOCATIONTY":"Stop","STOPLAT":-36.86793667,"STOPLON":174.60333944,"PARENTSTAT":"","MODE":"Train"}},
{"type":"Feature","geometry":{"type":"Point","coordinates":[174.6840499999682,-36.9093850001195]},"properties":{"OBJECTID":31,"STOPID":129,"STOPCODE":129,"STOPNAME":"New Lynn Train Station","STOPDESC":"","LOCATIONTY":"Stop","STOPLAT":-36.909385,"STOPLON":174.68405,"PARENTSTAT":"","MODE":"Train"}},
{"type":"Feature","geometry":{"type":"Point","coordinates":[174.84967000012557,-36.89777749984015]},"properties":{"OBJECTID":32,"STOPID":130,"STOPCODE":130,"STOPNAME":"Panmure Train Station","STOPDESC":"","LOCATIONTY":"Stop","STOPLAT":-36.8977775,"STOPLON":174.84967,"PARENTSTAT":"","MODE":"Train"}},
{"type":"Feature","geometry":{"type":"Point","coordinates":[174.76847972209558,-36.844291111536684]},"properties":{"OBJECTID":33,"STOPID":133,"STOPCODE":133,"STOPNAME":"Britomart Train Station","STOPDESC":"","LOCATIONTY":"Stop","STOPLAT":-36.84429111,"STOPLON":174.76847972,"PARENTSTAT":"","MODE":"Train"}},
{"type":"Feature","geometry":{"type":"Point","coordinates":[174.9101597222606,-37.2033108334721]},"properties":{"OBJECTID":34,"STOPID":134,"STOPCODE":134,"STOPNAME":"Pukekohe Train Station","STOPDESC":"","LOCATIONTY":"Stop","STOPLAT":-37.20331083,"STOPLON":174.91015972,"PARENTSTAT":"","MODE":"Train"}},
{"type":"Feature","geometry":{"type":"Point","coordinates":[174.77739916689268,-36.85472833293896]},"properties":{"OBJECTID":35,"STOPID":140,"STOPCODE":140,"STOPNAME":"Parnell Train Station","STOPDESC":"","LOCATIONTY":"Stop","STOPLAT":-36.85472833,"STOPLON":174.77739917,"PARENTSTAT":"","MODE":"Train"}},
{"type":"Feature","geometry":{"type":"Point","coordinates":[174.84259999994617,-36.91463666700101]},"properties":{"OBJECTID":36,"STOPID":244,"STOPCODE":244,"STOPNAME":"Sylvia Park Train Station","STOPDESC":"","LOCATIONTY":"Stop","STOPLAT":-36.91463667,"STOPLON":174.8426,"PARENTSTAT":"","MODE":"Train"}},
{"type":"Feature","geometry":{"type":"Point","coordinates":[174.76983999999317,-36.8656119442118]},"properties":{"OBJECTID":37,"STOPID":277,"STOPCODE":277,"STOPNAME":"Grafton Train Station","STOPDESC":"","LOCATIONTY":"Stop","STOPLAT":-36.86561194,"STOPLON":174.76984,"PARENTSTAT":"","MODE":"Train"}},
{"type":"Feature","geometry":{"type":"Point","coordinates":[174.78679999950776,-36.925393888894504]},"properties":{"OBJECTID":38,"STOPID":605,"STOPCODE":605,"STOPNAME":"Onehunga Train Station","STOPDESC":"","LOCATIONTY":"Stop","STOPLAT":-36.92539389,"STOPLON":174.7868,"PARENTSTAT":"","MODE":"Train"}},
{"type":"Feature","geometry":{"type":"Point","coordinates":[174.80137000041637,-36.920130833431536]},"properties":{"OBJECTID":39,"STOPID":606,"STOPCODE":606,"STOPNAME":"Te Papapa Train Station","STOPDESC":"","LOCATIONTY":"Stop","STOPLAT":-36.92013083,"STOPLON":174.80137,"PARENTSTAT":"","MODE":"Train"}},
{"type":"Feature","geometry":{"type":"Point","coordinates":[174.87739666712764,-36.99388000029837]},"properties":{"OBJECTID":40,"STOPID":9218,"STOPCODE":9218,"STOPNAME":"Manukau Train Station","STOPDESC":"","LOCATIONTY":"Stop","STOPLAT":-36.99388,"STOPLON":174.87739667,"PARENTSTAT":"","MODE":"Train"}}
]}